{"type":"Topology","arcs":[],"objects":{"substation_1_station":{"type":"GeometryCollection","geometries":[{"type":"Point","coordinates":[127.06155913879141,37.62408357268519],"properties":{"RAILNODE_I":"2050014","RAILNODE_T":"030","STATION_NA":"광운대역(1호선)","STATION_N2":null,"RAILWAY":"경원선","RAILWAY2":"서울1호선","RAILWAY3":null,"RAILWAY4":null,"RAILWAY5":null,"RAILWAY6":null,"RAILWAY7":null,"RAILWAY8":null,"RAILWAY9":null,"RAILTRANSF":"001","OPENNESS_S":"001","MANAGING_A":"한국철도공사","DISTRICT_I":"11110","SERVICE_TY":"025","RN_HISTORY":"2017M","REMARK":"2013년 성북역에서 광운대역으로"}},{"type":"Point","coordinates":[127.12140519023774,36.79377359466024],"properties":{"RAILNODE_I":"2080003","RAILNODE_T":"082","STATION_NA":"쌍용","STATION_N2":"(나사렛대)","RAILWAY":"장항선","RAILWAY2":"서울1호선","RAILWAY3":null,"RAILWAY4":null,"RAILWAY5":null,"RAILWAY6":null,"RAILWAY7":null,"RAILWAY8":null,"RAILWAY9":null,"RAILTRANSF":"000","OPENNESS_S":"001","MANAGING_A":"한국철도공사","DISTRICT_I":"34012","SERVICE_TY":"010","RN_HISTORY":null,"REMARK":null}},{"type":"Point","coordinates":[127.13650948817326,36.801678563948286],"properties":{"RAILNODE_I":"2080002","RAILNODE_T":"082","STATION_NA":"봉명","STATION_N2":null,"RAILWAY":"장항선","RAILWAY2":"서울1호선","RAILWAY3":null,"RAILWAY4":null,"RAILWAY5":null,"RAILWAY6":null,"RAILWAY7":null,"RAILWAY8":null,"RAILWAY9":null,"RAILTRANSF":"000","OPENNESS_S":"001","MANAGING_A":"한국철도공사","DISTRICT_I":"34011","SERVICE_TY":"010","RN_HISTORY":null,"REMARK":null}},{"type":"Point","coordinates":[127.00323089152567,36.78059153590875],"properties":{"RAILNODE_I":"1101036","RAILNODE_T":"030","STATION_NA":"온양온천역(1호선)","STATION_N2":null,"RAILWAY":"서울1호선","RAILWAY2":null,"RAILWAY3":null,"RAILWAY4":null,"RAILWAY5":null,"RAILWAY6":null,"RAILWAY7":null,"RAILWAY8":null,"RAILWAY9":null,"RAILTRANSF":"001","OPENNESS_S":"001","MANAGING_A":"한국철도공사","DISTRICT_I":"34040","SERVICE_TY":"010","RN_HISTORY":"2017M","REMARK":null}},{"type":"Point","coordinates":[127.05265848706891,36.77770137633396],"properties":{"RAILNODE_I":"2080005","RAILNODE_T":"081","STATION_NA":"배방","STATION_N2":null,"RAILWAY":"장항선","RAILWAY2":"서울1호선","RAILWAY3":null,"RAILWAY4":null,"RAILWAY5":null,"RAILWAY6":null,"RAILWAY7":null,"RAILWAY8":null,"RAILWAY9":null,"RAILTRANSF":"000","OPENNESS_S":"001","MANAGING_A":"한국철도공사","DISTRICT_I":"34040","SERVICE_TY":"010","RN_HISTORY":null,"REMARK":null}},{"type":"Point","coordinates":[126.88924679590627,37.46649063280206],"properties":{"RAILNODE_I":"2010012","RAILNODE_T":"030","STATION_NA":"독산","STATION_N2":"(하안동입구)","RAILWAY":"경부선","RAILWAY2":"서울1호선","RAILWAY3":null,"RAILWAY4":null,"RAILWAY5":null,"RAILWAY6":null,"RAILWAY7":null,"RAILWAY8":null,"RAILWAY9":null,"RAILTRANSF":"000","OPENNESS_S":"001","MANAGING_A":"한국철도공사","DISTRICT_I":"11180","SERVICE_TY":"010","RN_HISTORY":null,"REMARK":null}},{"type":"Point","coordinates":[126.88473249246788,37.416365942703905],"properties":{"RAILNODE_I":"1010002","RAILNODE_T":"030","STATION_NA":"광명역(1-3호선)","STATION_N2":null,"RAILWAY":"서울1호선","RAILWAY2":null,"RAILWAY3":null,"RAILWAY4":null,"RAILWAY5":null,"RAILWAY6":null,"RAILWAY7":null,"RAILWAY8":null,"RAILWAY9":null,"RAILTRANSF":"001","OPENNESS_S":"001","MANAGING_A":"한국철도공사","DISTRICT_I":"31060","SERVICE_TY":"010","RN_HISTORY":"2017M","REMARK":null}},{"type":"Point","coordinates":[126.89373966301669,37.455874986486485],"properties":{"RAILNODE_I":"1101024","RAILNODE_T":"030","STATION_NA":"금천구청역(1호선)","STATION_N2":null,"RAILWAY":"경부선","RAILWAY2":"서울1호선","RAILWAY3":null,"RAILWAY4":null,"RAILWAY5":null,"RAILWAY6":null,"RAILWAY7":null,"RAILWAY8":null,"RAILWAY9":null,"RAILTRANSF":"001","OPENNESS_S":"001","MANAGING_A":"한국철도공사","DISTRICT_I":"11180","SERVICE_TY":"025","RN_HISTORY":"2017M","REMARK":null}},{"type":"Point","coordinates":[126.90243239229058,37.43473274149264],"properties":{"RAILNODE_I":"2010015","RAILNODE_T":"082","STATION_NA":"석수","STATION_N2":null,"RAILWAY":"경부선","RAILWAY2":"서울1호선","RAILWAY3":null,"RAILWAY4":null,"RAILWAY5":null,"RAILWAY6":null,"RAILWAY7":null,"RAILWAY8":null,"RAILWAY9":null,"RAILTRANSF":"000","OPENNESS_S":"001","MANAGING_A":"한국철도공사","DISTRICT_I":"31041","SERVICE_TY":"010","RN_HISTORY":null,"REMARK":null}},{"type":"Point","coordinates":[126.90866404236698,37.41934794112802],"properties":{"RAILNODE_I":"2010016","RAILNODE_T":"082","STATION_NA":"관악","STATION_N2":null,"RAILWAY":"경부선","RAILWAY2":"서울1호선","RAILWAY3":null,"RAILWAY4":null,"RAILWAY5":null,"RAILWAY6":null,"RAILWAY7":null,"RAILWAY8":null,"RAILWAY9":null,"RAILTRANSF":"000","OPENNESS_S":"001","MANAGING_A":"한국철도공사","DISTRICT_I":"31041","SERVICE_TY":"010","RN_HISTORY":null,"REMARK":null}},{"type":"Point","coordinates":[126.92271159807957,37.40169869989705],"properties":{"RAILNODE_I":"1101026","RAILNODE_T":"030","STATION_NA":"안양역(1호선)","STATION_N2":null,"RAILWAY":"서울1호선","RAILWAY2":null,"RAILWAY3":null,"RAILWAY4":null,"RAILWAY5":null,"RAILWAY6":null,"RAILWAY7":null,"RAILWAY8":null,"RAILWAY9":null,"RAILTRANSF":"001","OPENNESS_S":"001","MANAGING_A":"한국철도공사","DISTRICT_I":"31041","SERVICE_TY":"010","RN_HISTORY":"2017M","REMARK":null}},{"type":"Point","coordinates":[126.935490832357,37.384882174326464],"properties":{"RAILNODE_I":"2010018","RAILNODE_T":"082","STATION_NA":"명학","STATION_N2":"(성결대앞)","RAILWAY":"경부선","RAILWAY2":"서울1호선","RAILWAY3":null,"RAILWAY4":null,"RAILWAY5":null,"RAILWAY6":null,"RAILWAY7":null,"RAILWAY8":null,"RAILWAY9":null,"RAILTRANSF":"000","OPENNESS_S":"001","MANAGING_A":"한국철도공사","DISTRICT_I":"31041","SERVICE_TY":"010","RN_HISTORY":null,"REMARK":null}},{"type":"Point","coordinates":[126.94850518541217,37.353462178171526],"properties":{"RAILNODE_I":"2010020","RAILNODE_T":"030","STATION_NA":"군포","STATION_N2":"(한세대앞)","RAILWAY":"경부선","RAILWAY2":"서울1호선","RAILWAY3":null,"RAILWAY4":null,"RAILWAY5":null,"RAILWAY6":null,"RAILWAY7":null,"RAILWAY8":null,"RAILWAY9":null,"RAILTRANSF":"000","OPENNESS_S":"001","MANAGING_A":"한국철도공사","DISTRICT_I":"31160","SERVICE_TY":"010","RN_HISTORY":null,"REMARK":null}},{"type":"Point","coordinates":[126.9480453644576,37.32134721428139],"properties":{"RAILNODE_I":"2010022","RAILNODE_T":"030","STATION_NA":"의왕","STATION_N2":"(철도대학)","RAILWAY":"경부선","RAILWAY2":"서울1호선","RAILWAY3":"남부화물기지","RAILWAY4":null,"RAILWAY5":null,"RAILWAY6":null,"RAILWAY7":null,"RAILWAY8":null,"RAILWAY9":null,"RAILTRANSF":"000","OPENNESS_S":"001","MANAGING_A":"한국철도공사","DISTRICT_I":"31170","SERVICE_TY":"025","RN_HISTORY":null,"REMARK":null}},{"type":"Point","coordinates":[126.9725198636157,37.3001886655425],"properties":{"RAILNODE_I":"2010023","RAILNODE_T":"030","STATION_NA":"성균관대","STATION_N2":null,"RAILWAY":"경부선","RAILWAY2":"서울1호선","RAILWAY3":null,"RAILWAY4":null,"RAILWAY5":null,"RAILWAY6":null,"RAILWAY7":null,"RAILWAY8":null,"RAILWAY9":null,"RAILTRANSF":"000","OPENNESS_S":"001","MANAGING_A":"한국철도공사","DISTRICT_I":"31011","SERVICE_TY":"010","RN_HISTORY":null,"REMARK":null}},{"type":"Point","coordinates":[126.98948826759363,37.28419081357733],"properties":{"RAILNODE_I":"2010024","RAILNODE_T":"081","STATION_NA":"화서","STATION_N2":null,"RAILWAY":"경부선","RAILWAY2":"서울1호선","RAILWAY3":null,"RAILWAY4":null,"RAILWAY5":null,"RAILWAY6":null,"RAILWAY7":null,"RAILWAY8":null,"RAILWAY9":null,"RAILTRANSF":"000","OPENNESS_S":"001","MANAGING_A":"한국철도공사","DISTRICT_I":"31013","SERVICE_TY":"010","RN_HISTORY":null,"REMARK":null}},{"type":"Point","coordinates":[127.01378983067136,37.2438532367253],"properties":{"RAILNODE_I":"2010026","RAILNODE_T":"030","STATION_NA":"세류","STATION_N2":null,"RAILWAY":"경부선","RAILWAY2":"서울1호선","RAILWAY3":null,"RAILWAY4":null,"RAILWAY5":null,"RAILWAY6":null,"RAILWAY7":null,"RAILWAY8":null,"RAILWAY9":null,"RAILTRANSF":"000","OPENNESS_S":"001","MANAGING_A":"한국철도공사","DISTRICT_I":"31012","SERVICE_TY":"010","RN_HISTORY":null,"REMARK":null}},{"type":"Point","coordinates":[127.03304519485309,37.20676161114018],"properties":{"RAILNODE_I":"1101029","RAILNODE_T":"030","STATION_NA":"병점역(1호선)","STATION_N2":null,"RAILWAY":"서울1호선","RAILWAY2":"경부선","RAILWAY3":null,"RAILWAY4":null,"RAILWAY5":null,"RAILWAY6":null,"RAILWAY7":null,"RAILWAY8":null,"RAILWAY9":null,"RAILTRANSF":"001","OPENNESS_S":"001","MANAGING_A":"한국철도공사","DISTRICT_I":"31240","SERVICE_TY":"010","RN_HISTORY":"2017M","REMARK":null}},{"type":"Point","coordinates":[127.04287083195426,37.188064595027534],"properties":{"RAILNODE_I":"2010028","RAILNODE_T":"082","STATION_NA":"세마","STATION_N2":null,"RAILWAY":"경부선","RAILWAY2":"서울1호선","RAILWAY3":null,"RAILWAY4":null,"RAILWAY5":null,"RAILWAY6":null,"RAILWAY7":null,"RAILWAY8":null,"RAILWAY9":null,"RAILTRANSF":"000","OPENNESS_S":"001","MANAGING_A":"한국철도공사","DISTRICT_I":"31140","SERVICE_TY":"010","RN_HISTORY":null,"REMARK":null}},{"type":"Point","coordinates":[127.06312045573092,37.169116017718835],"properties":{"RAILNODE_I":"2010029","RAILNODE_T":"082","STATION_NA":"오산대","STATION_N2":null,"RAILWAY":"경부선","RAILWAY2":"서울1호선","RAILWAY3":null,"RAILWAY4":null,"RAILWAY5":null,"RAILWAY6":null,"RAILWAY7":null,"RAILWAY8":null,"RAILWAY9":null,"RAILTRANSF":"000","OPENNESS_S":"001","MANAGING_A":"한국철도공사","DISTRICT_I":"31140","SERVICE_TY":"010","RN_HISTORY":null,"REMARK":null}},{"type":"Point","coordinates":[127.0666389185016,37.14492305578825],"properties":{"RAILNODE_I":"1101031","RAILNODE_T":"030","STATION_NA":"오산역(1호선)","STATION_N2":null,"RAILWAY":"서울1호선","RAILWAY2":null,"RAILWAY3":null,"RAILWAY4":null,"RAILWAY5":null,"RAILWAY6":null,"RAILWAY7":null,"RAILWAY8":null,"RAILWAY9":null,"RAILTRANSF":"001","OPENNESS_S":"001","MANAGING_A":"한국철도공사","DISTRICT_I":"31140","SERVICE_TY":"010","RN_HISTORY":"2017M","REMARK":null}},{"type":"Point","coordinates":[127.06235560335662,37.11028092083028],"properties":{"RAILNODE_I":"2010031","RAILNODE_T":"082","STATION_NA":"진위","STATION_N2":null,"RAILWAY":"경부선","RAILWAY2":"서울1호선","RAILWAY3":null,"RAILWAY4":null,"RAILWAY5":null,"RAILWAY6":null,"RAILWAY7":null,"RAILWAY8":null,"RAILWAY9":null,"RAILTRANSF":"000","OPENNESS_S":"001","MANAGING_A":"한국철도공사","DISTRICT_I":"31070","SERVICE_TY":"010","RN_HISTORY":null,"REMARK":null}},{"type":"Point","coordinates":[127.05456017739448,37.07519829088195],"properties":{"RAILNODE_I":"2010032","RAILNODE_T":"081","STATION_NA":"송탄","STATION_N2":null,"RAILWAY":"경부선","RAILWAY2":"서울1호선","RAILWAY3":null,"RAILWAY4":null,"RAILWAY5":null,"RAILWAY6":null,"RAILWAY7":null,"RAILWAY8":null,"RAILWAY9":null,"RAILTRANSF":"000","OPENNESS_S":"001","MANAGING_A":"한국철도공사","DISTRICT_I":"31070","SERVICE_TY":"010","RN_HISTORY":null,"REMARK":null}},{"type":"Point","coordinates":[127.05283465310016,37.05634349704912],"properties":{"RAILNODE_I":"2010033","RAILNODE_T":"030","STATION_NA":"서정리역(1호선)","STATION_N2":null,"RAILWAY":"서울1호선","RAILWAY2":null,"RAILWAY3":null,"RAILWAY4":null,"RAILWAY5":null,"RAILWAY6":null,"RAILWAY7":null,"RAILWAY8":null,"RAILWAY9":null,"RAILTRANSF":"001","OPENNESS_S":"001","MANAGING_A":"한국철도공사","DISTRICT_I":"31070","SERVICE_TY":"010","RN_HISTORY":"2017M","REMARK":null}},{"type":"Point","coordinates":[127.07067571029008,37.01859621786772],"properties":{"RAILNODE_I":"2010034","RAILNODE_T":"030","STATION_NA":"지제역(1호선)","STATION_N2":null,"RAILWAY":"경부선","RAILWAY2":"서울1호선","RAILWAY3":null,"RAILWAY4":null,"RAILWAY5":null,"RAILWAY6":null,"RAILWAY7":null,"RAILWAY8":null,"RAILWAY9":null,"RAILTRANSF":"001","OPENNESS_S":"001","MANAGING_A":"한국철도공사","DISTRICT_I":"31070","SERVICE_TY":"010","RN_HISTORY":"2017M","REMARK":null}},{"type":"Point","coordinates":[127.08547222278844,36.990697296371934],"properties":{"RAILNODE_I":"1101032","RAILNODE_T":"030","STATION_NA":"평택역(1호선)","STATION_N2":null,"RAILWAY":"서울1호선","RAILWAY2":null,"RAILWAY3":null,"RAILWAY4":null,"RAILWAY5":null,"RAILWAY6":null,"RAILWAY7":null,"RAILWAY8":null,"RAILWAY9":null,"RAILTRANSF":"001","OPENNESS_S":"001","MANAGING_A":"한국철도공사","DISTRICT_I":"31070","SERVICE_TY":"010","RN_HISTORY":"2017M","REMARK":null}},{"type":"Point","coordinates":[127.14400903612793,36.8706600573669],"properties":{"RAILNODE_I":"2010037","RAILNODE_T":"030","STATION_NA":"직산","STATION_N2":null,"RAILWAY":"경부선","RAILWAY2":"서울1호선","RAILWAY3":null,"RAILWAY4":null,"RAILWAY5":null,"RAILWAY6":null,"RAILWAY7":null,"RAILWAY8":null,"RAILWAY9":null,"RAILTRANSF":"000","OPENNESS_S":"001","MANAGING_A":"한국철도공사","DISTRICT_I":"34012","SERVICE_TY":"010","RN_HISTORY":null,"REMARK":null}},{"type":"Point","coordinates":[127.149116762741,36.83283273419103],"properties":{"RAILNODE_I":"2017001","RAILNODE_T":"030","STATION_NA":"두정","STATION_N2":null,"RAILWAY":"천안직결선","RAILWAY2":"경부선","RAILWAY3":"서울1호선","RAILWAY4":null,"RAILWAY5":null,"RAILWAY6":null,"RAILWAY7":null,"RAILWAY8":null,"RAILWAY9":null,"RAILTRANSF":"000","OPENNESS_S":"001","MANAGING_A":"한국철도공사","DISTRICT_I":"34012","SERVICE_TY":"025","RN_HISTORY":null,"REMARK":null}},{"type":"Point","coordinates":[127.0610755885552,37.94868430156794],"properties":{"RAILNODE_I":"2050033","RAILNODE_T":"030","STATION_NA":"소요산역(1호선)","STATION_N2":null,"RAILWAY":"서울1호선","RAILWAY2":null,"RAILWAY3":null,"RAILWAY4":null,"RAILWAY5":null,"RAILWAY6":null,"RAILWAY7":null,"RAILWAY8":null,"RAILWAY9":null,"RAILTRANSF":"001","OPENNESS_S":"001","MANAGING_A":"한국철도공사","DISTRICT_I":"31080","SERVICE_TY":"010","RN_HISTORY":"2017M","REMARK":null}},{"type":"Point","coordinates":[127.057172449114,37.914575344850206],"properties":{"RAILNODE_I":"2050031","RAILNODE_T":"082","STATION_NA":"보산","STATION_N2":null,"RAILWAY":"경원선","RAILWAY2":"서울1호선","RAILWAY3":null,"RAILWAY4":null,"RAILWAY5":null,"RAILWAY6":null,"RAILWAY7":null,"RAILWAY8":null,"RAILWAY9":null,"RAILTRANSF":"000","OPENNESS_S":"001","MANAGING_A":"한국철도공사","DISTRICT_I":"31080","SERVICE_TY":"010","RN_HISTORY":null,"REMARK":null}},{"type":"Point","coordinates":[127.05654154370299,37.90217878624295],"properties":{"RAILNODE_I":"2050030","RAILNODE_T":"030","STATION_NA":"동두천중앙","STATION_N2":null,"RAILWAY":"경원선","RAILWAY2":"서울1호선","RAILWAY3":null,"RAILWAY4":null,"RAILWAY5":null,"RAILWAY6":null,"RAILWAY7":null,"RAILWAY8":null,"RAILWAY9":null,"RAILTRANSF":"000","OPENNESS_S":"001","MANAGING_A":"한국철도공사","DISTRICT_I":"31080","SERVICE_TY":"010","RN_HISTORY":null,"REMARK":null}},{"type":"Point","coordinates":[127.0558214407872,37.89258302757337],"properties":{"RAILNODE_I":"2050029","RAILNODE_T":"082","STATION_NA":"지행","STATION_N2":null,"RAILWAY":"경원선","RAILWAY2":"서울1호선","RAILWAY3":null,"RAILWAY4":null,"RAILWAY5":null,"RAILWAY6":null,"RAILWAY7":null,"RAILWAY8":null,"RAILWAY9":null,"RAILTRANSF":"000","OPENNESS_S":"001","MANAGING_A":"한국철도공사","DISTRICT_I":"31080","SERVICE_TY":"010","RN_HISTORY":null,"REMARK":null}},{"type":"Point","coordinates":[127.06165386553728,37.84367476254987],"properties":{"RAILNODE_I":"2050028","RAILNODE_T":"030","STATION_NA":"덕정","STATION_N2":null,"RAILWAY":"경원선","RAILWAY2":"서울1호선","RAILWAY3":null,"RAILWAY4":null,"RAILWAY5":null,"RAILWAY6":null,"RAILWAY7":null,"RAILWAY8":null,"RAILWAY9":null,"RAILTRANSF":"000","OPENNESS_S":"001","MANAGING_A":"한국철도공사","DISTRICT_I":"31260","SERVICE_TY":"010","RN_HISTORY":null,"REMARK":null}},{"type":"Point","coordinates":[127.05641387884384,37.8179666268336],"properties":{"RAILNODE_I":"2050027","RAILNODE_T":"082","STATION_NA":"덕계","STATION_N2":null,"RAILWAY":"경원선","RAILWAY2":"서울1호선","RAILWAY3":null,"RAILWAY4":null,"RAILWAY5":null,"RAILWAY6":null,"RAILWAY7":null,"RAILWAY8":null,"RAILWAY9":null,"RAILTRANSF":"000","OPENNESS_S":"001","MANAGING_A":"한국철도공사","DISTRICT_I":"31260","SERVICE_TY":"010","RN_HISTORY":null,"REMARK":null}},{"type":"Point","coordinates":[127.04460558937852,37.772793378634915],"properties":{"RAILNODE_I":"2050026","RAILNODE_T":"082","STATION_NA":"양주","STATION_N2":null,"RAILWAY":"경원선","RAILWAY2":"서울1호선","RAILWAY3":null,"RAILWAY4":null,"RAILWAY5":null,"RAILWAY6":null,"RAILWAY7":null,"RAILWAY8":null,"RAILWAY9":null,"RAILTRANSF":"000","OPENNESS_S":"001","MANAGING_A":"한국철도공사","DISTRICT_I":"31260","SERVICE_TY":"010","RN_HISTORY":null,"REMARK":null}},{"type":"Point","coordinates":[127.04205191068881,37.75924954674168],"properties":{"RAILNODE_I":"2050025","RAILNODE_T":"082","STATION_NA":"녹양","STATION_N2":null,"RAILWAY":"경원선","RAILWAY2":"서울1호선","RAILWAY3":null,"RAILWAY4":null,"RAILWAY5":null,"RAILWAY6":null,"RAILWAY7":null,"RAILWAY8":null,"RAILWAY9":null,"RAILTRANSF":"000","OPENNESS_S":"001","MANAGING_A":"한국철도공사","DISTRICT_I":"31030","SERVICE_TY":"010","RN_HISTORY":null,"REMARK":null}},{"type":"Point","coordinates":[127.04401413341915,37.74945787397091],"properties":{"RAILNODE_I":"2050024","RAILNODE_T":"030","STATION_NA":"가능","STATION_N2":null,"RAILWAY":"경원선","RAILWAY2":"서울1호선","RAILWAY3":null,"RAILWAY4":null,"RAILWAY5":null,"RAILWAY6":null,"RAILWAY7":null,"RAILWAY8":null,"RAILWAY9":null,"RAILTRANSF":"000","OPENNESS_S":"001","MANAGING_A":"한국철도공사","DISTRICT_I":"31030","SERVICE_TY":"010","RN_HISTORY":null,"REMARK":null}},{"type":"Point","coordinates":[127.04622313639986,37.73840558876762],"properties":{"RAILNODE_I":"2050023","RAILNODE_T":"030","STATION_NA":"의정부","STATION_N2":null,"RAILWAY":"경원선","RAILWAY2":"서울1호선","RAILWAY3":"교외선","RAILWAY4":null,"RAILWAY5":null,"RAILWAY6":null,"RAILWAY7":null,"RAILWAY8":null,"RAILWAY9":null,"RAILTRANSF":"000","OPENNESS_S":"001","MANAGING_A":"한국철도공사","DISTRICT_I":"31030","SERVICE_TY":"010","RN_HISTORY":null,"REMARK":null}},{"type":"Point","coordinates":[127.04735981896276,37.710275257619514],"properties":{"RAILNODE_I":"2050021","RAILNODE_T":"082","STATION_NA":"망월사","STATION_N2":"(신흥대학)","RAILWAY":"경원선","RAILWAY2":"서울1호선","RAILWAY3":null,"RAILWAY4":null,"RAILWAY5":null,"RAILWAY6":null,"RAILWAY7":null,"RAILWAY8":null,"RAILWAY9":null,"RAILTRANSF":"000","OPENNESS_S":"001","MANAGING_A":"한국철도공사","DISTRICT_I":"31030","SERVICE_TY":"010","RN_HISTORY":null,"REMARK":null}},{"type":"Point","coordinates":[127.04603892806811,37.689446938026805],"properties":{"RAILNODE_I":"2050020","RAILNODE_T":"030","STATION_NA":"도봉산역(1호선)","STATION_N2":null,"RAILWAY":"경원선","RAILWAY2":"서울1호선","RAILWAY3":null,"RAILWAY4":null,"RAILWAY5":null,"RAILWAY6":null,"RAILWAY7":null,"RAILWAY8":null,"RAILWAY9":null,"RAILTRANSF":"001","OPENNESS_S":"001","MANAGING_A":"한국철도공사","DISTRICT_I":"11100","SERVICE_TY":"010","RN_HISTORY":"2017M","REMARK":null}},{"type":"Point","coordinates":[127.04763267378199,37.65338928199357],"properties":{"RAILNODE_I":"2050017","RAILNODE_T":"030","STATION_NA":"창동역(1호선)","STATION_N2":null,"RAILWAY":"경원선","RAILWAY2":"서울1호선","RAILWAY3":null,"RAILWAY4":null,"RAILWAY5":null,"RAILWAY6":null,"RAILWAY7":null,"RAILWAY8":null,"RAILWAY9":null,"RAILTRANSF":"001","OPENNESS_S":"001","MANAGING_A":"한국철도공사","DISTRICT_I":"11100","SERVICE_TY":"010","RN_HISTORY":"2017M","REMARK":null}},{"type":"Point","coordinates":[127.05133446340413,37.645064787967165],"properties":{"RAILNODE_I":"2050016","RAILNODE_T":"082","STATION_NA":"녹천","STATION_N2":null,"RAILWAY":"경원선","RAILWAY2":"서울1호선","RAILWAY3":null,"RAILWAY4":null,"RAILWAY5":null,"RAILWAY6":null,"RAILWAY7":null,"RAILWAY8":null,"RAILWAY9":null,"RAILTRANSF":"000","OPENNESS_S":"001","MANAGING_A":"한국철도공사","DISTRICT_I":"11100","SERVICE_TY":"010","RN_HISTORY":null,"REMARK":null}},{"type":"Point","coordinates":[127.05888537996135,37.632680174760814],"properties":{"RAILNODE_I":"2050015","RAILNODE_T":"082","STATION_NA":"월계","STATION_N2":"(인덕대학)","RAILWAY":"경원선","RAILWAY2":"서울1호선","RAILWAY3":null,"RAILWAY4":null,"RAILWAY5":null,"RAILWAY6":null,"RAILWAY7":null,"RAILWAY8":null,"RAILWAY9":null,"RAILTRANSF":"000","OPENNESS_S":"001","MANAGING_A":"한국철도공사","DISTRICT_I":"11110","SERVICE_TY":"010","RN_HISTORY":null,"REMARK":null}},{"type":"Point","coordinates":[127.0656160782344,37.61516389052914],"properties":{"RAILNODE_I":"1101011","RAILNODE_T":"112","STATION_NA":"석계역(1호선)","STATION_N2":null,"RAILWAY":"서울1호선","RAILWAY2":null,"RAILWAY3":null,"RAILWAY4":null,"RAILWAY5":null,"RAILWAY6":null,"RAILWAY7":null,"RAILWAY8":null,"RAILWAY9":null,"RAILTRANSF":"001","OPENNESS_S":"001","MANAGING_A":"한국철도공사","DISTRICT_I":"11110","SERVICE_TY":"010","RN_HISTORY":"2017M","REMARK":null}},{"type":"Point","coordinates":[127.06726315563614,37.601733923657875],"properties":{"RAILNODE_I":"2050012","RAILNODE_T":"030","STATION_NA":"신이문","STATION_N2":null,"RAILWAY":"경원선","RAILWAY2":"서울1호선","RAILWAY3":null,"RAILWAY4":null,"RAILWAY5":null,"RAILWAY6":null,"RAILWAY7":null,"RAILWAY8":null,"RAILWAY9":null,"RAILTRANSF":"000","OPENNESS_S":"001","MANAGING_A":"한국철도공사","DISTRICT_I":"11060","SERVICE_TY":"010","RN_HISTORY":null,"REMARK":null}},{"type":"Point","coordinates":[127.06375468949788,37.596573618951304],"properties":{"RAILNODE_I":"2050011","RAILNODE_T":"030","STATION_NA":"외대앞","STATION_N2":null,"RAILWAY":"경원선","RAILWAY2":"서울1호선","RAILWAY3":null,"RAILWAY4":null,"RAILWAY5":null,"RAILWAY6":null,"RAILWAY7":null,"RAILWAY8":null,"RAILWAY9":null,"RAILTRANSF":"000","OPENNESS_S":"001","MANAGING_A":"한국철도공사","DISTRICT_I":"11060","SERVICE_TY":"010","RN_HISTORY":null,"REMARK":null}},{"type":"Point","coordinates":[127.05804373831612,37.58982673477818],"properties":{"RAILNODE_I":"1101012","RAILNODE_T":"030","STATION_NA":"회기역(1호선)","STATION_N2":"(경희대앞)","RAILWAY":"서울1호선","RAILWAY2":null,"RAILWAY3":null,"RAILWAY4":null,"RAILWAY5":null,"RAILWAY6":null,"RAILWAY7":null,"RAILWAY8":null,"RAILWAY9":null,"RAILTRANSF":"001","OPENNESS_S":"001","MANAGING_A":"한국철도공사","DISTRICT_I":"11060","SERVICE_TY":"010","RN_HISTORY":"2017M","REMARK":null}},{"type":"Point","coordinates":[126.97124395390287,37.54032861616812],"properties":{"RAILNODE_I":"2010002","RAILNODE_T":"030","STATION_NA":"남영","STATION_N2":null,"RAILWAY":"경부선","RAILWAY2":"서울1호선","RAILWAY3":null,"RAILWAY4":null,"RAILWAY5":null,"RAILWAY6":null,"RAILWAY7":null,"RAILWAY8":null,"RAILWAY9":null,"RAILTRANSF":"000","OPENNESS_S":"001","MANAGING_A":"한국철도공사","DISTRICT_I":"11030","SERVICE_TY":"010","RN_HISTORY":null,"REMARK":null}},{"type":"Point","coordinates":[126.9645284808662,37.52972832940203],"properties":{"RAILNODE_I":"1101038","RAILNODE_T":"030","STATION_NA":"용산역(1호선)","STATION_N2":null,"RAILWAY":"서울1호선","RAILWAY2":"경부고속선","RAILWAY3":"호남고속선","RAILWAY4":"경부선","RAILWAY5":"용산선","RAILWAY6":null,"RAILWAY7":null,"RAILWAY8":null,"RAILWAY9":null,"RAILTRANSF":"001","OPENNESS_S":"001","MANAGING_A":"한국철도공사","DISTRICT_I":"11030","SERVICE_TY":"010","RN_HISTORY":"2017M","REMARK":null}},{"type":"Point","coordinates":[126.94191940383436,37.514049350357624],"properties":{"RAILNODE_I":"1101013","RAILNODE_T":"030","STATION_NA":"노량진역(1호선)","STATION_N2":null,"RAILWAY":"서울1호선","RAILWAY2":null,"RAILWAY3":null,"RAILWAY4":null,"RAILWAY5":null,"RAILWAY6":null,"RAILWAY7":null,"RAILWAY8":null,"RAILWAY9":null,"RAILTRANSF":"001","OPENNESS_S":"001","MANAGING_A":"한국철도공사","DISTRICT_I":"11200","SERVICE_TY":"010","RN_HISTORY":"2017M","REMARK":null}},{"type":"Point","coordinates":[126.9262338590365,37.51334876352176],"properties":{"RAILNODE_I":"2010005","RAILNODE_T":"030","STATION_NA":"대방","STATION_N2":null,"RAILWAY":"경부선","RAILWAY2":"서울1호선","RAILWAY3":null,"RAILWAY4":null,"RAILWAY5":null,"RAILWAY6":null,"RAILWAY7":null,"RAILWAY8":null,"RAILWAY9":null,"RAILTRANSF":"000","OPENNESS_S":"001","MANAGING_A":"한국철도공사","DISTRICT_I":"11190","SERVICE_TY":"010","RN_HISTORY":null,"REMARK":null}},{"type":"Point","coordinates":[126.88150391756749,37.502399286034624],"properties":{"RAILNODE_I":"1101018","RAILNODE_T":"030","STATION_NA":"구로역(1-2호선)","STATION_N2":"신창방면","RAILWAY":"서울1호선","RAILWAY2":"경부선","RAILWAY3":null,"RAILWAY4":null,"RAILWAY5":null,"RAILWAY6":null,"RAILWAY7":null,"RAILWAY8":null,"RAILWAY9":null,"RAILTRANSF":"001","OPENNESS_S":"001","MANAGING_A":"한국철도공사","DISTRICT_I":"11170","SERVICE_TY":"010","RN_HISTORY":"2017M","REMARK":null}},{"type":"Point","coordinates":[126.86981673494024,37.496243304022784],"properties":{"RAILNODE_I":"3010003","RAILNODE_T":"082","STATION_NA":"구일","STATION_N2":"(동양공전앞)","RAILWAY":"경인선","RAILWAY2":"서울1호선","RAILWAY3":null,"RAILWAY4":null,"RAILWAY5":null,"RAILWAY6":null,"RAILWAY7":null,"RAILWAY8":null,"RAILWAY9":null,"RAILTRANSF":"000","OPENNESS_S":"001","MANAGING_A":"한국철도공사","DISTRICT_I":"11170","SERVICE_TY":"010","RN_HISTORY":null,"REMARK":null}},{"type":"Point","coordinates":[126.85860803369454,37.49469962762597],"properties":{"RAILNODE_I":"3010004","RAILNODE_T":"030","STATION_NA":"개봉","STATION_N2":null,"RAILWAY":"경인선","RAILWAY2":"서울1호선","RAILWAY3":null,"RAILWAY4":null,"RAILWAY5":null,"RAILWAY6":null,"RAILWAY7":null,"RAILWAY8":null,"RAILWAY9":null,"RAILTRANSF":"000","OPENNESS_S":"001","MANAGING_A":"한국철도공사","DISTRICT_I":"11170","SERVICE_TY":"010","RN_HISTORY":null,"REMARK":null}},{"type":"Point","coordinates":[126.84346836065885,37.49414370417559],"properties":{"RAILNODE_I":"3010005","RAILNODE_T":"030","STATION_NA":"오류동","STATION_N2":null,"RAILWAY":"경인선","RAILWAY2":"서울1호선","RAILWAY3":null,"RAILWAY4":null,"RAILWAY5":null,"RAILWAY6":null,"RAILWAY7":null,"RAILWAY8":null,"RAILWAY9":null,"RAILTRANSF":"000","OPENNESS_S":"001","MANAGING_A":"한국철도공사","DISTRICT_I":"11170","SERVICE_TY":"025","RN_HISTORY":null,"REMARK":null}},{"type":"Point","coordinates":[126.81182128017221,37.485270119494814],"properties":{"RAILNODE_I":"3010007","RAILNODE_T":"030","STATION_NA":"역곡","STATION_N2":"(가톨릭대)","RAILWAY":"경인선","RAILWAY2":"서울1호선","RAILWAY3":null,"RAILWAY4":null,"RAILWAY5":null,"RAILWAY6":null,"RAILWAY7":null,"RAILWAY8":null,"RAILWAY9":null,"RAILTRANSF":"000","OPENNESS_S":"001","MANAGING_A":"한국철도공사","DISTRICT_I":"31050","SERVICE_TY":"010","RN_HISTORY":null,"REMARK":null}},{"type":"Point","coordinates":[126.79555330888435,37.48281355577508],"properties":{"RAILNODE_I":"3010008","RAILNODE_T":"030","STATION_NA":"소사","STATION_N2":"(서울신대)","RAILWAY":"경인선","RAILWAY2":"서울1호선","RAILWAY3":null,"RAILWAY4":null,"RAILWAY5":null,"RAILWAY6":null,"RAILWAY7":null,"RAILWAY8":null,"RAILWAY9":null,"RAILTRANSF":"000","OPENNESS_S":"001","MANAGING_A":"한국철도공사","DISTRICT_I":"31050","SERVICE_TY":"010","RN_HISTORY":null,"REMARK":null}},{"type":"Point","coordinates":[126.78267610094306,37.48400512144658],"properties":{"RAILNODE_I":"3010009","RAILNODE_T":"030","STATION_NA":"부천","STATION_N2":"(부천대입구)","RAILWAY":"경인선","RAILWAY2":"서울1호선","RAILWAY3":null,"RAILWAY4":null,"RAILWAY5":null,"RAILWAY6":null,"RAILWAY7":null,"RAILWAY8":null,"RAILWAY9":null,"RAILTRANSF":"000","OPENNESS_S":"001","MANAGING_A":"한국철도공사","DISTRICT_I":"31050","SERVICE_TY":"010","RN_HISTORY":null,"REMARK":null}},{"type":"Point","coordinates":[126.76453750510598,37.48672288079483],"properties":{"RAILNODE_I":"3010010","RAILNODE_T":"030","STATION_NA":"중동","STATION_N2":null,"RAILWAY":"경인선","RAILWAY2":"서울1호선","RAILWAY3":null,"RAILWAY4":null,"RAILWAY5":null,"RAILWAY6":null,"RAILWAY7":null,"RAILWAY8":null,"RAILWAY9":null,"RAILTRANSF":"000","OPENNESS_S":"001","MANAGING_A":"한국철도공사","DISTRICT_I":"31050","SERVICE_TY":"010","RN_HISTORY":null,"REMARK":null}},{"type":"Point","coordinates":[126.75311465187156,37.487723101333906],"properties":{"RAILNODE_I":"3010011","RAILNODE_T":"030","STATION_NA":"송내","STATION_N2":null,"RAILWAY":"경인선","RAILWAY2":"서울1호선","RAILWAY3":null,"RAILWAY4":null,"RAILWAY5":null,"RAILWAY6":null,"RAILWAY7":null,"RAILWAY8":null,"RAILWAY9":null,"RAILTRANSF":"000","OPENNESS_S":"001","MANAGING_A":"한국철도공사","DISTRICT_I":"31050","SERVICE_TY":"010","RN_HISTORY":null,"REMARK":null}},{"type":"Point","coordinates":[126.74062214643749,37.488559905408316],"properties":{"RAILNODE_I":"3010012","RAILNODE_T":"030","STATION_NA":"부개","STATION_N2":null,"RAILWAY":"경인선","RAILWAY2":"서울1호선","RAILWAY3":null,"RAILWAY4":null,"RAILWAY5":null,"RAILWAY6":null,"RAILWAY7":null,"RAILWAY8":null,"RAILWAY9":null,"RAILTRANSF":"000","OPENNESS_S":"001","MANAGING_A":"한국철도공사","DISTRICT_I":"23060","SERVICE_TY":"010","RN_HISTORY":null,"REMARK":null}},{"type":"Point","coordinates":[126.72437647077915,37.48946927969354],"properties":{"RAILNODE_I":"1101020","RAILNODE_T":"030","STATION_NA":"부평역(1호선)","STATION_N2":null,"RAILWAY":"서울1호선","RAILWAY2":null,"RAILWAY3":null,"RAILWAY4":null,"RAILWAY5":null,"RAILWAY6":null,"RAILWAY7":null,"RAILWAY8":null,"RAILWAY9":null,"RAILTRANSF":"001","OPENNESS_S":"001","MANAGING_A":"한국철도공사","DISTRICT_I":"23060","SERVICE_TY":"025","RN_HISTORY":"2017M","REMARK":null}},{"type":"Point","coordinates":[126.70692533590595,37.48299731244883],"properties":{"RAILNODE_I":"3010014","RAILNODE_T":"030","STATION_NA":"백운","STATION_N2":null,"RAILWAY":"경인선","RAILWAY2":"서울1호선","RAILWAY3":null,"RAILWAY4":null,"RAILWAY5":null,"RAILWAY6":null,"RAILWAY7":null,"RAILWAY8":null,"RAILWAY9":null,"RAILTRANSF":"000","OPENNESS_S":"001","MANAGING_A":"한국철도공사","DISTRICT_I":"23060","SERVICE_TY":"010","RN_HISTORY":null,"REMARK":null}},{"type":"Point","coordinates":[126.70290936215156,37.471230908095635],"properties":{"RAILNODE_I":"3010015","RAILNODE_T":"030","STATION_NA":"동암","STATION_N2":null,"RAILWAY":"경인선","RAILWAY2":"서울1호선","RAILWAY3":null,"RAILWAY4":null,"RAILWAY5":null,"RAILWAY6":null,"RAILWAY7":null,"RAILWAY8":null,"RAILWAY9":null,"RAILTRANSF":"000","OPENNESS_S":"001","MANAGING_A":"한국철도공사","DISTRICT_I":"23060","SERVICE_TY":"010","RN_HISTORY":null,"REMARK":null}},{"type":"Point","coordinates":[126.69342274834837,37.46469086740598],"properties":{"RAILNODE_I":"3010016","RAILNODE_T":"082","STATION_NA":"간석","STATION_N2":null,"RAILWAY":"경인선","RAILWAY2":"서울1호선","RAILWAY3":null,"RAILWAY4":null,"RAILWAY5":null,"RAILWAY6":null,"RAILWAY7":null,"RAILWAY8":null,"RAILWAY9":null,"RAILTRANSF":"000","OPENNESS_S":"001","MANAGING_A":"한국철도공사","DISTRICT_I":"23050","SERVICE_TY":"010","RN_HISTORY":null,"REMARK":null}},{"type":"Point","coordinates":[126.6798070679035,37.465080300231584],"properties":{"RAILNODE_I":"1101021","RAILNODE_T":"030","STATION_NA":"주안역(1호선)","STATION_N2":"(인하대학교)","RAILWAY":"경인선","RAILWAY2":"서울1호선","RAILWAY3":null,"RAILWAY4":null,"RAILWAY5":null,"RAILWAY6":null,"RAILWAY7":null,"RAILWAY8":null,"RAILWAY9":null,"RAILTRANSF":"001","OPENNESS_S":"001","MANAGING_A":"한국철도공사","DISTRICT_I":"23030","SERVICE_TY":"010","RN_HISTORY":"2017M","REMARK":null}},{"type":"Point","coordinates":[126.66814061397734,37.46616083163738],"properties":{"RAILNODE_I":"3010018","RAILNODE_T":"082","STATION_NA":"도화","STATION_N2":null,"RAILWAY":"경인선","RAILWAY2":"서울1호선","RAILWAY3":null,"RAILWAY4":null,"RAILWAY5":null,"RAILWAY6":null,"RAILWAY7":null,"RAILWAY8":null,"RAILWAY9":null,"RAILTRANSF":"000","OPENNESS_S":"001","MANAGING_A":"한국철도공사","DISTRICT_I":"23030","SERVICE_TY":"010","RN_HISTORY":null,"REMARK":null}},{"type":"Point","coordinates":[126.6569951699685,37.4668108151347],"properties":{"RAILNODE_I":"3010019","RAILNODE_T":"030","STATION_NA":"제물포","STATION_N2":"(인천대앞)","RAILWAY":"경인선","RAILWAY2":"서울1호선","RAILWAY3":null,"RAILWAY4":null,"RAILWAY5":null,"RAILWAY6":null,"RAILWAY7":null,"RAILWAY8":null,"RAILWAY9":null,"RAILTRANSF":"000","OPENNESS_S":"001","MANAGING_A":"한국철도공사","DISTRICT_I":"23030","SERVICE_TY":"010","RN_HISTORY":null,"REMARK":null}},{"type":"Point","coordinates":[126.64267694962234,37.46851587250964],"properties":{"RAILNODE_I":"3010020","RAILNODE_T":"082","STATION_NA":"도원","STATION_N2":null,"RAILWAY":"경인선","RAILWAY2":"서울1호선","RAILWAY3":null,"RAILWAY4":null,"RAILWAY5":null,"RAILWAY6":null,"RAILWAY7":null,"RAILWAY8":null,"RAILWAY9":null,"RAILTRANSF":"000","OPENNESS_S":"001","MANAGING_A":"한국철도공사","DISTRICT_I":"23020","SERVICE_TY":"010","RN_HISTORY":null,"REMARK":null}},{"type":"Point","coordinates":[126.63190697015494,37.476026287764945],"properties":{"RAILNODE_I":"3010021","RAILNODE_T":"030","STATION_NA":"동인천","STATION_N2":null,"RAILWAY":"경인선","RAILWAY2":"서울1호선","RAILWAY3":null,"RAILWAY4":null,"RAILWAY5":null,"RAILWAY6":null,"RAILWAY7":null,"RAILWAY8":null,"RAILWAY9":null,"RAILTRANSF":"000","OPENNESS_S":"001","MANAGING_A":"한국철도공사","DISTRICT_I":"23010","SERVICE_TY":"010","RN_HISTORY":null,"REMARK":null}},{"type":"Point","coordinates":[126.61678675856018,37.476109450224044],"properties":{"RAILNODE_I":"1101022","RAILNODE_T":"030","STATION_NA":"인천역(1호선)","STATION_N2":null,"RAILWAY":"경인선","RAILWAY2":"서울1호선","RAILWAY3":null,"RAILWAY4":null,"RAILWAY5":null,"RAILWAY6":null,"RAILWAY7":null,"RAILWAY8":null,"RAILWAY9":null,"RAILTRANSF":"001","OPENNESS_S":"001","MANAGING_A":"한국철도공사","DISTRICT_I":"23010","SERVICE_TY":"025","RN_HISTORY":"2017M","REMARK":null}},{"type":"Point","coordinates":[126.8985820480819,37.4451537064601],"properties":{"RAILNODE_I":"1010001","RAILNODE_T":"300","STATION_NA":"분기(시흥연결선)","STATION_N2":null,"RAILWAY":"경부고속선","RAILWAY2":"경부선","RAILWAY3":"시흥연결선","RAILWAY4":"서울1호선","RAILWAY5":null,"RAILWAY6":null,"RAILWAY7":null,"RAILWAY8":null,"RAILWAY9":null,"RAILTRANSF":"009","OPENNESS_S":"001","MANAGING_A":"한국철도공사","DISTRICT_I":"11180","SERVICE_TY":null,"RN_HISTORY":null,"REMARK":"연결선분기"}},{"type":"Point","coordinates":[126.95729506890301,37.52458174258316],"properties":{"RAILNODE_I":"2012001","RAILNODE_T":"300","STATION_NA":"분기점(경부선)","STATION_N2":null,"RAILWAY":"용산삼각선","RAILWAY2":"경부선","RAILWAY3":"서울1호선","RAILWAY4":null,"RAILWAY5":null,"RAILWAY6":null,"RAILWAY7":null,"RAILWAY8":null,"RAILWAY9":null,"RAILTRANSF":"009","OPENNESS_S":"001","MANAGING_A":"한국철도공사","DISTRICT_I":"11030","SERVICE_TY":null,"RN_HISTORY":null,"REMARK":"삼각선분기"}},{"type":"Point","coordinates":[126.87215368985746,37.49733165975968],"properties":{"RAILNODE_I":"2012002","RAILNODE_T":"300","STATION_NA":"분기점(경인선)","STATION_N2":null,"RAILWAY":"경인선","RAILWAY2":"구로삼각선","RAILWAY3":"서울1호선","RAILWAY4":null,"RAILWAY5":null,"RAILWAY6":null,"RAILWAY7":null,"RAILWAY8":null,"RAILWAY9":null,"RAILTRANSF":"009","OPENNESS_S":"001","MANAGING_A":"한국철도공사","DISTRICT_I":"11170","SERVICE_TY":null,"RN_HISTORY":null,"REMARK":"삼각선분기"}},{"type":"Point","coordinates":[126.87968705894299,37.49168500217968],"properties":{"RAILNODE_I":"2011001","RAILNODE_T":"300","STATION_NA":"분기점(경부선)","STATION_N2":null,"RAILWAY":"구로삼각선","RAILWAY2":"경부선","RAILWAY3":"서울1호선","RAILWAY4":null,"RAILWAY5":null,"RAILWAY6":null,"RAILWAY7":null,"RAILWAY8":null,"RAILWAY9":null,"RAILTRANSF":"009","OPENNESS_S":"001","MANAGING_A":"한국철도공사","DISTRICT_I":"11170","SERVICE_TY":null,"RN_HISTORY":null,"REMARK":"삼각선분기"}},{"type":"Point","coordinates":[127.04560043126048,37.679411002352076],"properties":{"RAILNODE_I":"2050019","RAILNODE_T":"082","STATION_NA":"도봉","STATION_N2":null,"RAILWAY":"경원선","RAILWAY2":"서울1호선","RAILWAY3":null,"RAILWAY4":null,"RAILWAY5":null,"RAILWAY6":null,"RAILWAY7":null,"RAILWAY8":null,"RAILWAY9":null,"RAILTRANSF":"000","OPENNESS_S":"001","MANAGING_A":"한국철도공사","DISTRICT_I":"11100","SERVICE_TY":"010","RN_HISTORY":null,"REMARK":null}},{"type":"Point","coordinates":[127.04437211192311,37.66752042137415],"properties":{"RAILNODE_I":"2050018","RAILNODE_T":"030","STATION_NA":"방학","STATION_N2":null,"RAILWAY":"경원선","RAILWAY2":"서울1호선","RAILWAY3":null,"RAILWAY4":null,"RAILWAY5":null,"RAILWAY6":null,"RAILWAY7":null,"RAILWAY8":null,"RAILWAY9":null,"RAILTRANSF":"000","OPENNESS_S":"001","MANAGING_A":"한국철도공사","DISTRICT_I":"11100","SERVICE_TY":"010","RN_HISTORY":null,"REMARK":null}},{"type":"Point","coordinates":[127.04503289632177,37.58010313131076],"properties":{"RAILNODE_I":"1101010","RAILNODE_T":"111","STATION_NA":"청량리역(1호선)","STATION_N2":"(서울시립대입구)","RAILWAY":"서울1호선","RAILWAY2":null,"RAILWAY3":null,"RAILWAY4":null,"RAILWAY5":null,"RAILWAY6":null,"RAILWAY7":null,"RAILWAY8":null,"RAILWAY9":null,"RAILTRANSF":"001","OPENNESS_S":"001","MANAGING_A":"서울메트로","DISTRICT_I":"11060","SERVICE_TY":null,"RN_HISTORY":"2017M","REMARK":null}},{"type":"Point","coordinates":[127.03444252236247,37.57815419461716],"properties":{"RAILNODE_I":"1101009","RAILNODE_T":"111","STATION_NA":"제기동","STATION_N2":null,"RAILWAY":"서울1호선","RAILWAY2":null,"RAILWAY3":null,"RAILWAY4":null,"RAILWAY5":null,"RAILWAY6":null,"RAILWAY7":null,"RAILWAY8":null,"RAILWAY9":null,"RAILTRANSF":"000","OPENNESS_S":"001","MANAGING_A":"서울메트로","DISTRICT_I":"11060","SERVICE_TY":null,"RN_HISTORY":null,"REMARK":null}},{"type":"Point","coordinates":[127.02449430329884,37.57605530727172],"properties":{"RAILNODE_I":"1101008","RAILNODE_T":"112","STATION_NA":"신설동역(1호선)","STATION_N2":null,"RAILWAY":"서울1호선","RAILWAY2":null,"RAILWAY3":null,"RAILWAY4":null,"RAILWAY5":null,"RAILWAY6":null,"RAILWAY7":null,"RAILWAY8":null,"RAILWAY9":null,"RAILTRANSF":"001","OPENNESS_S":"001","MANAGING_A":"서울메트로","DISTRICT_I":"11060","SERVICE_TY":null,"RN_HISTORY":"2017M","REMARK":null}},{"type":"Point","coordinates":[127.01622671730681,37.573175537584575],"properties":{"RAILNODE_I":"1101007","RAILNODE_T":"112","STATION_NA":"동묘앞역(1호선)","STATION_N2":null,"RAILWAY":"서울1호선","RAILWAY2":null,"RAILWAY3":null,"RAILWAY4":null,"RAILWAY5":null,"RAILWAY6":null,"RAILWAY7":null,"RAILWAY8":null,"RAILWAY9":null,"RAILTRANSF":"001","OPENNESS_S":"001","MANAGING_A":"서울메트로","DISTRICT_I":"11010","SERVICE_TY":null,"RN_HISTORY":"2017M","REMARK":null}},{"type":"Point","coordinates":[127.01049413822493,37.571656739088795],"properties":{"RAILNODE_I":"1101006","RAILNODE_T":"112","STATION_NA":"동대문(1호선)","STATION_N2":null,"RAILWAY":"서울1호선","RAILWAY2":null,"RAILWAY3":null,"RAILWAY4":null,"RAILWAY5":null,"RAILWAY6":null,"RAILWAY7":null,"RAILWAY8":null,"RAILWAY9":null,"RAILTRANSF":"001","OPENNESS_S":"001","MANAGING_A":"서울메트로","DISTRICT_I":"11010","SERVICE_TY":null,"RN_HISTORY":"2017M","REMARK":null}},{"type":"Point","coordinates":[127.00191029342773,37.57100509347201],"properties":{"RAILNODE_I":"1101005","RAILNODE_T":"111","STATION_NA":"종로5가","STATION_N2":null,"RAILWAY":"서울1호선","RAILWAY2":null,"RAILWAY3":null,"RAILWAY4":null,"RAILWAY5":null,"RAILWAY6":null,"RAILWAY7":null,"RAILWAY8":null,"RAILWAY9":null,"RAILTRANSF":"000","OPENNESS_S":"001","MANAGING_A":"서울메트로","DISTRICT_I":"11010","SERVICE_TY":null,"RN_HISTORY":null,"REMARK":null}},{"type":"Point","coordinates":[126.98295563776199,37.57016493867242],"properties":{"RAILNODE_I":"1101003","RAILNODE_T":"111","STATION_NA":"종각","STATION_N2":null,"RAILWAY":"서울1호선","RAILWAY2":null,"RAILWAY3":null,"RAILWAY4":null,"RAILWAY5":null,"RAILWAY6":null,"RAILWAY7":null,"RAILWAY8":null,"RAILWAY9":null,"RAILTRANSF":"000","OPENNESS_S":"001","MANAGING_A":"서울메트로","DISTRICT_I":"11010","SERVICE_TY":null,"RN_HISTORY":null,"REMARK":null}},{"type":"Point","coordinates":[126.97717915817447,37.5653744942832],"properties":{"RAILNODE_I":"1101002","RAILNODE_T":"112","STATION_NA":"시청역(1호선)","STATION_N2":null,"RAILWAY":"서울1호선","RAILWAY2":null,"RAILWAY3":null,"RAILWAY4":null,"RAILWAY5":null,"RAILWAY6":null,"RAILWAY7":null,"RAILWAY8":null,"RAILWAY9":null,"RAILTRANSF":"001","OPENNESS_S":"001","MANAGING_A":"서울메트로","DISTRICT_I":"11020","SERVICE_TY":null,"RN_HISTORY":"2017M","REMARK":null}},{"type":"Point","coordinates":[126.97207993896976,37.555745991952676],"properties":{"RAILNODE_I":"1101001","RAILNODE_T":"112","STATION_NA":"서울역(1호선)","STATION_N2":"(지하)","RAILWAY":"서울1호선","RAILWAY2":null,"RAILWAY3":null,"RAILWAY4":null,"RAILWAY5":null,"RAILWAY6":null,"RAILWAY7":null,"RAILWAY8":null,"RAILWAY9":null,"RAILTRANSF":"001","OPENNESS_S":"001","MANAGING_A":"서울메트로","DISTRICT_I":"11020","SERVICE_TY":null,"RN_HISTORY":"2017M","REMARK":null}},{"type":"Point","coordinates":[127.05163570022121,37.195769287794185],"properties":{"RAILNODE_I":"2016003","RAILNODE_T":"030","STATION_NA":"서동탄","STATION_N2":null,"RAILWAY":"병점기지선","RAILWAY2":"서울1호선","RAILWAY3":null,"RAILWAY4":null,"RAILWAY5":null,"RAILWAY6":null,"RAILWAY7":null,"RAILWAY8":null,"RAILWAY9":null,"RAILTRANSF":"000","OPENNESS_S":"001","MANAGING_A":"한국철도공사","DISTRICT_I":"31140","SERVICE_TY":null,"RN_HISTORY":null,"REMARK":null}},{"type":"Point","coordinates":[126.948345508928,37.34431375510959],"properties":{"RAILNODE_I":"2010021","RAILNODE_T":"030","STATION_NA":"당정","STATION_N2":null,"RAILWAY":"경부선","RAILWAY2":"서울1호선","RAILWAY3":null,"RAILWAY4":null,"RAILWAY5":null,"RAILWAY6":null,"RAILWAY7":null,"RAILWAY8":null,"RAILWAY9":null,"RAILTRANSF":"000","OPENNESS_S":"001","MANAGING_A":"한국철도공사","DISTRICT_I":"31160","SERVICE_TY":null,"RN_HISTORY":null,"REMARK":null}},{"type":"Point","coordinates":[127.047300708593,37.7237129912684],"properties":{"RAILNODE_I":"2050022","RAILNODE_T":"082","STATION_NA":"회룡역(1호선)","STATION_N2":null,"RAILWAY":"경원선","RAILWAY2":"서울1호선","RAILWAY3":null,"RAILWAY4":null,"RAILWAY5":null,"RAILWAY6":null,"RAILWAY7":null,"RAILWAY8":null,"RAILWAY9":null,"RAILTRANSF":"001","OPENNESS_S":"001","MANAGING_A":"한국철도공사","DISTRICT_I":"31030","SERVICE_TY":"010","RN_HISTORY":"2017M","REMARK":null}},{"type":"Point","coordinates":[126.99200424369606,37.57043391415008],"properties":{"RAILNODE_I":"1101004","RAILNODE_T":"112","STATION_NA":"종로3가역(1호선)","STATION_N2":null,"RAILWAY":"서울1호선","RAILWAY2":null,"RAILWAY3":null,"RAILWAY4":null,"RAILWAY5":null,"RAILWAY6":null,"RAILWAY7":null,"RAILWAY8":null,"RAILWAY9":null,"RAILTRANSF":"001","OPENNESS_S":"001","MANAGING_A":"서울메트로","DISTRICT_I":"11010","SERVICE_TY":null,"RN_HISTORY":"2017M","REMARK":null}},{"type":"Point","coordinates":[126.91844172027012,37.5167529754571],"properties":{"RAILNODE_I":"1101014","RAILNODE_T":"030","STATION_NA":"신길역(1호선)","STATION_N2":null,"RAILWAY":"서울1호선","RAILWAY2":null,"RAILWAY3":null,"RAILWAY4":null,"RAILWAY5":null,"RAILWAY6":null,"RAILWAY7":null,"RAILWAY8":null,"RAILWAY9":null,"RAILTRANSF":"001","OPENNESS_S":"001","MANAGING_A":"한국철도공사","DISTRICT_I":"11190","SERVICE_TY":"010","RN_HISTORY":"2017M","REMARK":null}},{"type":"Point","coordinates":[126.90741580005444,37.515629498927545],"properties":{"RAILNODE_I":"1101015","RAILNODE_T":"030","STATION_NA":"영등포역(1호선)","STATION_N2":null,"RAILWAY":"서울1호선","RAILWAY2":null,"RAILWAY3":null,"RAILWAY4":null,"RAILWAY5":null,"RAILWAY6":null,"RAILWAY7":null,"RAILWAY8":null,"RAILWAY9":null,"RAILTRANSF":"001","OPENNESS_S":"001","MANAGING_A":"한국철도공사","DISTRICT_I":"11190","SERVICE_TY":"025","RN_HISTORY":"2017M","REMARK":null}},{"type":"Point","coordinates":[126.8912855920434,37.50890062866852],"properties":{"RAILNODE_I":"1101016","RAILNODE_T":"030","STATION_NA":"신도림역(1호선)","STATION_N2":null,"RAILWAY":"경부선","RAILWAY2":"서울1호선","RAILWAY3":null,"RAILWAY4":null,"RAILWAY5":null,"RAILWAY6":null,"RAILWAY7":null,"RAILWAY8":null,"RAILWAY9":null,"RAILTRANSF":"001","OPENNESS_S":"001","MANAGING_A":"한국철도공사","DISTRICT_I":"11170","SERVICE_TY":"010","RN_HISTORY":"2017M","REMARK":null}},{"type":"Point","coordinates":[126.88120610912438,37.50260370926373],"properties":{"RAILNODE_I":"1101017","RAILNODE_T":"030","STATION_NA":"구로역(1-1호선)","STATION_N2":"인천방면","RAILWAY":"경부선","RAILWAY2":null,"RAILWAY3":"서울1호선","RAILWAY4":null,"RAILWAY5":null,"RAILWAY6":null,"RAILWAY7":null,"RAILWAY8":null,"RAILWAY9":null,"RAILTRANSF":"001","OPENNESS_S":"001","MANAGING_A":"한국철도공사","DISTRICT_I":"11170","SERVICE_TY":"010","RN_HISTORY":"2017M","REMARK":null}},{"type":"Point","coordinates":[126.82390002983664,37.49243022573506],"properties":{"RAILNODE_I":"3010006","RAILNODE_T":"030","STATION_NA":"온수역(1호선)","STATION_N2":"(성공회대입구)","RAILWAY":"서울1호선","RAILWAY2":null,"RAILWAY3":null,"RAILWAY4":null,"RAILWAY5":null,"RAILWAY6":null,"RAILWAY7":null,"RAILWAY8":null,"RAILWAY9":null,"RAILTRANSF":"001","OPENNESS_S":"001","MANAGING_A":"한국철도공사","DISTRICT_I":"11170","SERVICE_TY":"010","RN_HISTORY":"2017M","REMARK":null}},{"type":"Point","coordinates":[126.88263021247822,37.48155298277266],"properties":{"RAILNODE_I":"1101023","RAILNODE_T":"030","STATION_NA":"가산디지털단지(1호선)","STATION_N2":null,"RAILWAY":"경부선","RAILWAY2":"서울1호선","RAILWAY3":null,"RAILWAY4":null,"RAILWAY5":null,"RAILWAY6":null,"RAILWAY7":null,"RAILWAY8":null,"RAILWAY9":null,"RAILTRANSF":"001","OPENNESS_S":"001","MANAGING_A":"한국철도공사","DISTRICT_I":"11180","SERVICE_TY":"010","RN_HISTORY":"2017M","REMARK":null}},{"type":"Point","coordinates":[126.94329718199211,37.3722464895186],"properties":{"RAILNODE_I":"1101027","RAILNODE_T":"030","STATION_NA":"금정역(1호선)","STATION_N2":null,"RAILWAY":"경부선","RAILWAY2":"서울1호선","RAILWAY3":null,"RAILWAY4":null,"RAILWAY5":null,"RAILWAY6":null,"RAILWAY7":null,"RAILWAY8":null,"RAILWAY9":null,"RAILTRANSF":"001","OPENNESS_S":"001","MANAGING_A":"한국철도공사","DISTRICT_I":"31160","SERVICE_TY":"010","RN_HISTORY":"2017M","REMARK":null}},{"type":"Point","coordinates":[126.99949405409673,37.26669155203879],"properties":{"RAILNODE_I":"1101028","RAILNODE_T":"030","STATION_NA":"수원역(1호선)","STATION_N2":null,"RAILWAY":"서울1호선","RAILWAY2":null,"RAILWAY3":null,"RAILWAY4":null,"RAILWAY5":null,"RAILWAY6":null,"RAILWAY7":null,"RAILWAY8":null,"RAILWAY9":null,"RAILTRANSF":"001","OPENNESS_S":"001","MANAGING_A":"한국철도공사","DISTRICT_I":"31013","SERVICE_TY":"025","RN_HISTORY":"2017M","REMARK":null}},{"type":"Point","coordinates":[127.03327951627512,37.20682828743912],"properties":{"RAILNODE_I":"1101030","RAILNODE_T":"030","STATION_NA":"병점역(1-3호선)","STATION_N2":null,"RAILWAY":"서울1호선","RAILWAY2":"병점기지선","RAILWAY3":null,"RAILWAY4":null,"RAILWAY5":null,"RAILWAY6":null,"RAILWAY7":null,"RAILWAY8":null,"RAILWAY9":null,"RAILTRANSF":"001","OPENNESS_S":"001","MANAGING_A":"한국철도공사","DISTRICT_I":"31240","SERVICE_TY":"010","RN_HISTORY":"2017M","REMARK":null}},{"type":"Point","coordinates":[127.12694365147426,36.915858188280865],"properties":{"RAILNODE_I":"1101033","RAILNODE_T":"030","STATION_NA":"성환역(1호선)","STATION_N2":null,"RAILWAY":"서울1호선","RAILWAY2":null,"RAILWAY3":null,"RAILWAY4":null,"RAILWAY5":null,"RAILWAY6":null,"RAILWAY7":null,"RAILWAY8":null,"RAILWAY9":null,"RAILTRANSF":"001","OPENNESS_S":"001","MANAGING_A":"한국철도공사","DISTRICT_I":"34012","SERVICE_TY":"010","RN_HISTORY":"2017M","REMARK":null}},{"type":"Point","coordinates":[127.14662388945922,36.81124129852208],"properties":{"RAILNODE_I":"1101034","RAILNODE_T":"030","STATION_NA":"천안역(1호선)","STATION_N2":null,"RAILWAY":"서울1호선","RAILWAY2":null,"RAILWAY3":null,"RAILWAY4":null,"RAILWAY5":null,"RAILWAY6":null,"RAILWAY7":null,"RAILWAY8":null,"RAILWAY9":null,"RAILTRANSF":"001","OPENNESS_S":"001","MANAGING_A":"한국철도공사","DISTRICT_I":"34012","SERVICE_TY":"010","RN_HISTORY":"2017M","REMARK":null}},{"type":"Point","coordinates":[127.10409729876734,36.79212510033523],"properties":{"RAILNODE_I":"1101035","RAILNODE_T":"082","STATION_NA":"아산역(1호선)","STATION_N2":null,"RAILWAY":"서울1호선","RAILWAY2":null,"RAILWAY3":null,"RAILWAY4":null,"RAILWAY5":null,"RAILWAY6":null,"RAILWAY7":null,"RAILWAY8":null,"RAILWAY9":null,"RAILTRANSF":"001","OPENNESS_S":"001","MANAGING_A":"한국철도공사","DISTRICT_I":"34040","SERVICE_TY":"010","RN_HISTORY":"2017M","REMARK":null}},{"type":"Point","coordinates":[126.95102969123923,36.769570464145325],"properties":{"RAILNODE_I":"1101037","RAILNODE_T":"030","STATION_NA":"신창역(1호선)","STATION_N2":"(순천향대)","RAILWAY":"서울1호선","RAILWAY2":null,"RAILWAY3":null,"RAILWAY4":null,"RAILWAY5":null,"RAILWAY6":null,"RAILWAY7":null,"RAILWAY8":null,"RAILWAY9":null,"RAILTRANSF":"001","OPENNESS_S":"001","MANAGING_A":"한국철도공사","DISTRICT_I":"34040","SERVICE_TY":"010","RN_HISTORY":"2017M","REMARK":null}},{"type":"Point","coordinates":[127.05489923192215,37.927626055414315],"properties":{"RAILNODE_I":"2010125","RAILNODE_T":"030","STATION_NA":"동두천역(1호선)","STATION_N2":null,"RAILWAY":"서울1호선","RAILWAY2":null,"RAILWAY3":null,"RAILWAY4":null,"RAILWAY5":null,"RAILWAY6":null,"RAILWAY7":null,"RAILWAY8":null,"RAILWAY9":null,"RAILTRANSF":"001","OPENNESS_S":"001","MANAGING_A":"한국철도공사","DISTRICT_I":"31080","SERVICE_TY":"025","RN_HISTORY":"2017M","REMARK":null}}]}},"crs":{"type":"name","properties":{"name":"urn:ogc:def:crs:OGC:1.3:CRS84"}}}